[{"name": "MIPQ60 - Questura di Milano", "address": "via Cordusio, 4 MILANO", "coordinates": [9.1851513, 45.4646766], "open": "08.00", "province": "MI"}, {"name": "SVPQ60 - Questura di Savona", "address": "via dei Partigiani, 2 SAVONA", "coordinates": [8.4721856, 44.3111058], "open": "19.00", "province": "SV"}, {"name": "TNPQ60 - Questura di Trento", "address": "viale Verona, 187 TRENTO", "coordinates": [11.131797477854949, 46.04614705], "open": "09.00", "province": "TN"}, {"name": "VRPQ60 - Questura di Verona", "address": "Lungadige Antonio Galtarossa, 11 VERONA", "coordinates": [10.999665, 45.4318104], "open": "13.00", "province": "VR"}, {"name": "MIPC01 - Commissariato Sesto S. Giovanni", "address": "via Fiume, 2 SESTO SAN GIOVANNI", "coordinates": [9.2277021, 45.5236992], "open": "07.30", "province": "MI"}, {"name": "MIPC02 - Commissariato Comasina", "address": "via Comasina, 36 MILANO", "coordinates": [8.9334887, 45.6000058], "open": "08.00", "province": "MI"}, {"name": "MIPC03 - Commissariato Citta studi", "address": "via Cadamosto, 4 MILANO", "coordinates": [9.20913, 45.4764525], "open": "08.00", "province": "MI"}, {"name": "MIPC04 - Commissariato Greco Turro", "address": "via Perotti, 2 MILANO", "coordinates": [9.2007689, 45.5016202], "open": "08.00", "province": "MI"}, {"name": "MIPC05 - Commissariato Lambrate", "address": "via Maniago, 36 MILANO", "coordinates": [9.2394853, 45.4895124], "open": "08.00", "province": "MI"}, {"name": "MIPC06 - Commissariato Legnano", "address": "via Monsignor Gilardelli, 1 LEGNANO", "coordinates": [8.91984, 45.5952183], "open": "08.00", "province": "MI"}, {"name": "MBPQ60 - Questura di Monza e della Brianza", "address": "Via Montevecchia snc MONZA", "coordinates": [9.2484165, 45.5950549], "open": "09.00", "province": "MB"}, {"name": "MIPC10 - Commissariato Porta Genova", "address": "p.zza Venino, 6 MILANO", "coordinates": [9.168530652124435, 45.46055655], "open": "08.00", "province": "MI"}, {"name": "MIPC11 - Commissariato Porta Ticinese", "address": "via Tabacchi, 6 MILANO", "coordinates": [9.1851982, 45.4478958], "open": "08.00", "province": "MI"}, {"name": "MIPC12 - Commissariato San Siro", "address": "via Novara, 199 MILANO", "coordinates": [9.0766246, 45.4875632], "open": "08.00", "province": "MI"}, {"name": "MIPC13 - Commissariato Scalo Romana", "address": "via F. Chopin, 52 MILANO", "coordinates": [9.207352493116773, 45.426143249999996], "open": "08.00", "province": "MI"}, {"name": "MIPC14 - Commissariato Mecenate", "address": "via Quintiliano, 59 MILANO", "coordinates": [9.251979467021004, 45.4491008], "open": "08.00", "province": "MI"}, {"name": "MIPC15 - Commissariato Centro", "address": "p.zza San Sepolcro, 9 MILANO", "coordinates": [9.1850735, 45.4628651], "open": "08.00", "province": "MI"}, {"name": "MIPC16 - Commissariato Sempione", "address": "v.le Certosa, 7 MILANO", "coordinates": [9.1218141, 45.5033201], "open": "08.00", "province": "MI"}, {"name": "MIPC17 - Commissariato Garibaldi Venezia", "address": "via Schiapparelli, 8 MILANO", "coordinates": [9.1371736, 45.5631945], "open": "08.00", "province": "MI"}, {"name": "MIPC18 - Commissariato Monforte Vittoria", "address": "via C. Poma, 8 MILANO", "coordinates": [9.2158498, 45.4661627], "open": "08.00", "province": "MI"}, {"name": "MIPC19 - Commissariato Cinisello Balsamo", "address": "via Cilea, 30 CINISELLO BALSAMO", "coordinates": [9.209242, 45.5725406], "open": "08.00", "province": "MI"}, {"name": "MIPC20 - Commissariato Bonola di Milano", "address": "via Falk, 12 MILANO", "coordinates": [9.102847, 45.4996], "open": "08.00", "province": "MI"}, {"name": "MIPC21 - Commissariato Quarto Oggiaro", "address": "via Satta, 6 MILANO", "coordinates": [9.1387424, 45.5170241], "open": "08.00", "province": "MI"}, {"name": "MIPC22 - Commissariato Rho Pero", "address": "via Nazario Sauro, 13 RHO", "coordinates": [9.06809411531308, 45.530311049999995], "open": "08.00", "province": "MI"}, {"name": "MIPC23 - Commissariato Lorenteggio", "address": "via Primaticcio, 3 MILANO", "coordinates": [9.1293376, 45.4599107], "open": "08.00", "province": "MI"}, {"name": "MIPC24 - Commissariato Villa San Giovanni", "address": "v.le Monza, 322 MILANO", "coordinates": [9.22433270585019, 45.51248185], "open": "08.00", "province": "MI"}, {"name": "TNPC01 - Commissariato Riva del Garda", "address": "via Brione, 5 RIVA DEL GARDA", "coordinates": [10.858407371848848, 45.87944305], "open": "09.00", "province": "TN"}, {"name": "TNPC02 - Commissariato Rovereto", "address": "via Sighele, 1 ROVERETO", "coordinates": [11.0354733, 45.8922214], "open": "08.00", "province": "TN"}, {"name": "SVPC01 - Commissariato Alassio", "address": "v.le Hanbury, 19 ALASSIO", "coordinates": [8.174675, 44.0101146], "open": "08.00", "province": "SV"}, {"name": "VAPQ60 - Questura di Varese", "address": "Piazza della Libert\u00e0, 2 VARESE", "coordinates": [8.814178, 45.8177331], "open": "08.30", "province": "VA"}, {"name": "VAPC01 - Commissariato Busto Arsizio", "address": "via Ugo Foscolo,6 BUSTO ARSIZIO", "coordinates": [8.8532441, 45.6089377], "open": "09.00", "province": "VA"}, {"name": "VAPC02 - Commissariato Gallarate", "address": "Via dei Ragazzi del 99, n.04 GALLARATE", "coordinates": [8.8000436, 45.6569409], "open": "08.00", "province": "VA"}, {"name": "ALPQ60 - Questura di Alessandria", "address": "Corso Lamarmora, 71 ALESSANDRIA", "coordinates": [8.6219838, 44.9118772], "open": "08.00", "province": "AL"}, {"name": "ALPC01 - Commissariato Casale Monferrato", "address": "Piazza Statuto, 9 CASALE MONFERRATO", "coordinates": [8.4566858, 45.138092], "open": "09.00", "province": "AL"}, {"name": "BIPQ60 - Questura di Biella", "address": "Via Sant Eusebio, 5/A BIELLA", "coordinates": [8.0583148, 45.5606874], "open": "08.00", "province": "BI"}, {"name": "VBPQ60 - Questura di Verbania", "address": "Corso Nazioni Unite, 18 VERBANIA", "coordinates": [8.548742582962863, 45.9297897], "open": "09.00", "province": "VB"}, {"name": "TOPQ60 - Questura di Torino", "address": "Piazza Cesare Augusto, 5 TORINO", "coordinates": [7.6841844, 45.0749835], "open": "09.00", "province": "TO"}, {"name": "VBPC02 - Commissariato Domodossola", "address": "Via Bonomelli , 5  DOMODOSSOLA", "coordinates": [8.2962084, 46.1130919], "open": "08.00", "province": "VB"}, {"name": "TOPC06 - Commissariato Bardonecchia", "address": "viale della Vittoria, 1 BARDONECCHIA", "coordinates": [6.6967782, 45.0720744], "open": "09.00", "province": "TO"}, {"name": "VBPC01 - Commissariato Omegna", "address": "Via Comoli, 142 OMEGNA", "coordinates": [8.402436, 45.8706753], "open": "08.00", "province": "VB"}, {"name": "NOPQ60 - Questura di Novara", "address": "Piazza del Popolo, 1 NOVARA", "coordinates": [8.5597729, 45.7628016], "open": "09.00", "province": "NO"}, {"name": "VCPQ60  - Questura di Vercelli", "address": "VIA QUAGLIOTTI N.1 VERCELLI", "coordinates": [8.4235928, 45.3223554], "open": "08.00", "province": "VC"}, {"name": "LOPQ60 - Questura di Lodi", "address": "Via Defendente, 33 LODI", "coordinates": [9.5038504, 45.3192066], "open": "09.00", "province": "LO"}, {"name": "TOPC09 - Commissariato Ivrea", "address": "Piazza San Francesco D'Assisi, 3 IVREA", "coordinates": [7.876936, 45.4658697], "open": "09.00", "province": "TO"}, {"name": "PCPQ60 - Questura di Piacenza", "address": "Viale Malta 10/C PIACENZA", "coordinates": [9.6850535, 45.0509734], "open": "08.00", "province": "PC"}, {"name": "TOPC11 - Commissariato Rivoli", "address": "via Pavia, 26 RIVOLI", "coordinates": [7.5520982, 45.0698958], "open": "09.00", "province": "TO"}, {"name": "ATPQ60 - Questura di Asti", "address": "Corso XXV Aprile, 19 ASTI", "coordinates": [8.197178850369568, 44.90539365], "open": "08.00", "province": "AT"}, {"name": "TOPC01 - Commissariato Torino Barriera di Milano", "address": "Via Botticelli, 114 TORINO", "coordinates": [7.7104475, 45.0983281], "open": "09.00", "province": "TO"}, {"name": "CNPQ60 - Questura di Cuneo", "address": "Piazzetta Usmiani, 5 CUNEO", "coordinates": [7.5529796, 44.3956029], "open": "00.15", "province": "CN"}, {"name": "TOPC07 - Commissariato Torino Barriera Nizza", "address": "Corso Spezia, 26 TORINO", "coordinates": [7.6695243, 45.0372297], "open": "09.00", "province": "TO"}, {"name": "TOPC12 - Commissariato Torino San Donato", "address": "Via Pierdionigi Pinelli, 3 TORINO", "coordinates": [7.6696258, 45.0799445], "open": "09.00", "province": "TO"}, {"name": "TOPC16 - Commissariato Torino San Paolo", "address": "C.so Racconigi ,100/A TORINO", "coordinates": [7.6447789, 45.065143], "open": "09.00", "province": "TO"}, {"name": "TOPC08 - Commissariato Torino Borgo Po", "address": "Via Sabaudia, 36 TORINO", "coordinates": [7.6843561, 45.0344724], "open": "09.00", "province": "TO"}, {"name": "TOPE51  - Commissariato Torino Centro ", "address": "Via Giuseppe Verdi, 11 TORINO", "coordinates": [7.6117909, 45.2435797], "open": "09.00", "province": "TO"}, {"name": "TOPC14 - Commissariato Torino San Secondo ", "address": "Via Massena, 105 TORINO", "coordinates": [7.6672131, 45.0529424], "open": "09.00", "province": "TO"}, {"name": "TOPC18 - Commissariato Torino Dora-Vanchiglia", "address": "Piazzale Cesare Augusto, 5 TORINO", "coordinates": [7.684203197001882, 45.075222265217334], "open": "08.00", "province": "TO"}, {"name": "TOPC02 - Commissariato Torino Madonna di Campagna", "address": "Corso Grosseto, 283 TORINO", "coordinates": [7.6634386, 45.1045431], "open": "09.00", "province": "TO"}, {"name": "TOPC10 - Commissariato Torino Mirafiori", "address": "Via Olivero Pier Domenico, 13 TORINO", "coordinates": [7.6470569, 45.031321], "open": "09.00", "province": "TO"}, {"name": "MEPQ60 - Questura di Messina", "address": "Via Raffaele Villari, 2 MESSINA", "coordinates": [15.5494096, 38.1841442], "open": "08.00", "province": "ME"}, {"name": "MEPC01 - Commissariato  Barcellona pozzo di Gotto", "address": "Via Luigi de Luca, 22 BARCELLONA POZZO DI GOTTO", "coordinates": [15.2196707, 38.1497249], "open": "09.00", "province": "ME"}, {"name": "MEPC08 - Commissariato Capo d'Orlando", "address": "Via Piave, 52/C CAPO D'ORLANDO", "coordinates": [14.7435224, 38.1589455], "open": "08.00", "province": "ME"}, {"name": "PAPQ60 - Questura di Palermo", "address": "Piazza della Vittoria, 8 PALERMO", "coordinates": [13.355301709826016, 38.11235859999999], "open": "09.00", "province": "PA"}, {"name": "PAPC03 - Commissariato Bagheria", "address": "Via Giuseppe La Masa, 60 BAGHERIA", "coordinates": [13.5085222, 38.0833321], "open": "09.00", "province": "PA"}, {"name": "MEPC03 - Commissariato Messina Nord", "address": "Via Epifanio Abate MESSINA", "coordinates": [15.5615497, 38.219337], "open": "08.00", "province": "ME"}, {"name": "PAPC05 - Commissariato Cefal\u00f9", "address": "Via Roma, 15 CEFALU'", "coordinates": [14.0207861, 38.0348744], "open": "08.00", "province": "PA"}, {"name": "MEPC07 - Commissariato Messina Sud", "address": "Strada Statale 114  km.4+200(Localit\u00e0 Contesse) MESSINA", "coordinates": [15.5296626, 38.1516019], "open": "09.00", "province": "ME"}, {"name": "PAPC06 - Commissariato Corleone", "address": "Via Giuseppe Verdi, snc CORLEONE", "coordinates": [13.2952855, 37.8204908], "open": "10.00", "province": "PA"}, {"name": "MEPC04 - Commissariato di Milazzo", "address": "Via Municipio, 1 MILAZZO", "coordinates": [15.2425152, 38.220728], "open": "09.00", "province": "ME"}, {"name": "PAPC04 - Commissariato Palermo Brancaccio", "address": "Via Giafar, 193 PALERMO", "coordinates": [13.3839113, 38.0893136], "open": "09.00", "province": "PA"}, {"name": "MEPC05 - Commissariato Patti", "address": "Contrada Santo Spirito,50 PATTI", "coordinates": [14.973157174641694, 38.1374459], "open": "08.00", "province": "ME"}, {"name": "PAPC17 - Commissariato Palermo Libert\u00e0", "address": "Via Generale Arimondi, 2/P PALERMO", "coordinates": [13.3486486, 38.1356563], "open": "09.00", "province": "PA"}, {"name": "MEPC02 - Commissariato Sant'Agata di Militello", "address": "Via Roma, 31 SANT'AGATA DI MILITELLO", "coordinates": [14.6342693, 38.0696828], "open": "08.00", "province": "ME"}, {"name": "MEPC06 - Commissariato Taormina", "address": "Piazza S. Domenico, 1 TAORMINA", "coordinates": [15.283685, 37.8503255], "open": "08.00", "province": "ME"}, {"name": "PAPC09 - Commissariato Palermo Mondello", "address": "Viale Regina Elena, 43 PALERMO", "coordinates": [13.3350523, 38.1963522], "open": "10.30", "province": "PA"}, {"name": "PAPC16 - Commissariato Palermo Oreto-Stazione", "address": "Via Roma, 194 PALERMO", "coordinates": [13.3637686, 38.1159154], "open": "09.30", "province": "PA"}, {"name": "VVPQ60 - Questura di Vibo Valentia", "address": "Via S. Aloe snc VIBO VALENTIA", "coordinates": [16.1083647, 38.6804689], "open": "08.00", "province": "VV"}, {"name": "PAPC19 - Commissariato Centro", "address": "Via Bentivegna, 58 PALERMO", "coordinates": [13.5681985, 37.9232367], "open": "09.00", "province": "PA"}, {"name": "VVPC01 - Commissariato Serra San Bruno", "address": "Via San Brunone di Colonia snc SERRA SAN BRUNO", "coordinates": [16.334035, 38.5797184], "open": "08.00", "province": "VV"}, {"name": "PZPQ60 - Questura di Potenza", "address": "Viale Guglielmo Marconi, 42  POTENZA", "coordinates": [16.0820097, 40.6761741], "open": "08.00", "province": "PZ"}, {"name": "PAPC13 - Commissariato Porta Nuova", "address": "Corso Calatafimi, 410 PALERMO", "coordinates": [13.352492, 38.1120601], "open": "09.00", "province": "PA"}, {"name": "PZPC01 - Commissariato di Melfi", "address": "Via Passannante, 1 MELFI", "coordinates": [15.6556545, 40.9961268], "open": "09.00", "province": "PZ"}, {"name": "PAPC18 - Commissariato Palermo San Lorenzo", "address": "Viale Duca degli Abruzzi, 2 PALERMO", "coordinates": [13.3181568, 38.1649271], "open": "09.00", "province": "PA"}, {"name": "PAPC14 - Commissariato Palermo Zisa - Borgo Nuovo", "address": "Via Noce, 91 PALERMO", "coordinates": [14.1543866, 37.8606745], "open": "08.00", "province": "PA"}, {"name": "PAPC11 - Commissariato Partinico", "address": "Corso dei Mille, 235 PARTINICO", "coordinates": [13.1181495, 38.046471], "open": "09.00", "province": "PA"}, {"name": "PAPC02 - Commissariato Termini Imerese", "address": "Via del Mazziere, 71 TERMINI IMERESE", "coordinates": [13.695554, 37.983651], "open": "10.00", "province": "PA"}, {"name": "KRPQ60 - Questura di Crotone", "address": "Largo Pastificio, 20 CROTONE", "coordinates": [17.128028, 39.0823544], "open": "08.00", "province": "KR"}, {"name": "CZPQ60 - Questura di Catanzaro", "address": "Piazza Cavour n.2 CATANZARO", "coordinates": [16.5937007, 38.9050046], "open": "08.00", "province": "CZ"}, {"name": "MEPQ00 - Questura U.R.P. Messina", "address": "via Gran Priorato MESSINA", "coordinates": [15.5566192, 38.199879], "open": "09.15", "province": "ME"}, {"name": "MTPQ60 - Questura di Matera", "address": "Via Gattini, 12 MATERA", "coordinates": [16.6694676, 40.5435652], "open": "08.00", "province": "MT"}, {"name": "MTPC03 - Commissariato Policoro", "address": "Via Puglia snc POLICORO", "coordinates": [16.6738447, 40.209794], "open": "08.00", "province": "MT"}, {"name": "MTPC01 - Commissariato Pisticci", "address": "Via Pierpaolo Pasolini s.n.c. PISTICCI", "coordinates": [16.5633706280967, 40.3893109], "open": "08.00", "province": "MT"}, {"name": "CNPQ00 - Ufficio Passaporti Distaccato di Bra (CN)", "address": "Via Guala, 2 BRA", "coordinates": [7.8488792, 44.6960692], "open": "00.15", "province": "CN"}, {"name": "SPPQ60 - Questura della Spezia", "address": "Viale Italia, 497 LA SPEZIA", "coordinates": [9.8408389, 44.1166251], "open": "09.00", "province": "SP"}, {"name": "SPPC02 - Commissariato Sarzana", "address": "Piazza Vittorio Veneto civ.1 SARZANA", "coordinates": [9.9599823, 44.1131762], "open": "08.00", "province": "SP"}, {"name": "MNPQ60 - Questura di Mantova", "address": "Piazza Sordello, 46 MANTOVA", "coordinates": [10.796846481244966, 45.1599503], "open": "07.30", "province": "MN"}, {"name": "BSPQ60 - Questura di Brescia Via Capriolo, 3", "address": "Via E. Capriolo,3 BRESCIA", "coordinates": [10.4258729694612, 45.77958045], "open": "08.00", "province": "BS"}, {"name": "BSPC01 - Commissariato Desenzano del Garda", "address": "Via Dante Alighieri, 17 DESENZANO DEL GARDA", "coordinates": [10.5419364, 45.4646226], "open": "14.00", "province": "BS"}, {"name": "TPPQ60 - Questura di Trapani", "address": "Piazza Vittorio Veneto, 1 TRAPANI", "coordinates": [12.514688768004646, 38.01861955], "open": "08.00", "province": "TP"}, {"name": "TPPC03 - Commissariato di Alcamo", "address": "Piazza della Libert\u00e0, 4 ALCAMO", "coordinates": [12.965507278264159, 37.9825746], "open": "09.00", "province": "TP"}, {"name": "TPPC01 - Commissariato C/mmare del Golfo", "address": "Via Umberto I, 3 CASTELLAMMARE DEL GOLFO", "coordinates": [12.885837, 38.018846], "open": "08.00", "province": "TP"}, {"name": "TPPC04 - Commissariato Castelvetrano", "address": "Piazza Della Giustizia, 1 CASTELVETRANO", "coordinates": [12.7883743, 37.6921175], "open": "09.00", "province": "TP"}, {"name": "TPPC05 - Commissariato Marsala", "address": "Via Verdi, 32 MARSALA", "coordinates": [12.4369459, 37.7932875], "open": "09.00", "province": "TP"}, {"name": "TPPC02 - Commissariato Mazara del vallo", "address": "Via Emanuele Sansone, 56 MAZARA DEL VALLO", "coordinates": [12.5817464, 37.6585655], "open": "08.00", "province": "TP"}, {"name": "PVPQ60 - Questura di Pavia", "address": "Via Rismondo, 68 PAVIA", "coordinates": [9.1567169, 45.1933152], "open": "08.30", "province": "PV"}, {"name": "PVPC01 - Commissariato Vigevano", "address": "Viale Libert\u00e0, 3/B VIGEVANO", "coordinates": [8.8738884, 45.3213015], "open": "08.00", "province": "PV"}, {"name": "PVPC02 - Commissariato Voghera", "address": "Via Carlo Emanuele III, 23 VOGHERA", "coordinates": [9.0173405, 44.9931063], "open": "12.00", "province": "PV"}, {"name": "LCPQ60 - Questura di Lecco", "address": "Via Leonardo da Vinci, 2 LECCO", "coordinates": [9.3947455, 45.6975985], "open": "08.30", "province": "LC"}, {"name": "BGPQ60 - Questura di Bergamo", "address": "Via Noli,22 BERGAMO", "coordinates": [9.6817673, 45.7017292], "open": "08.00", "province": "BG"}, {"name": "CZPC01 - Commissariato Lamezia Terme", "address": "Via Perugini LAMEZIA TERME", "coordinates": [16.3044174, 38.9591435], "open": "08.00", "province": "CZ"}, {"name": "BGPC01 -  Commissariato Treviglio", "address": "P.zza del Popolo, 3 TREVIGLIO", "coordinates": [9.5890105, 45.5212019], "open": "08.00", "province": "BG"}, {"name": "AOPQ60 - Questura di Aosta", "address": "Corso Battaglione Aosta, 169 AOSTA", "coordinates": [7.3048364, 45.7335342], "open": "08.00", "province": "AO"}, {"name": "CRPQ60 - Questura di Cremona", "address": "corso Vittorio Emanuele II, 23 CREMONA", "coordinates": [10.0164797, 45.1323623], "open": "08.30", "province": "CR"}, {"name": "CRPC01 - Commissariato Crema", "address": "via Macall\u00e8, 7 CREMA", "coordinates": [9.6807988, 45.3572378], "open": "08.30", "province": "CR"}, {"name": "GEPQ60 - Questura di Genova", "address": "Corso Aurelio Saffi, 37 GENOVA", "coordinates": [8.9321474, 44.4014277], "open": "08.00", "province": "GE"}, {"name": "GEPC01 - Commissariato P.S. Chiavari ", "address": "Via Brizzolara, 5 CHIAVARI", "coordinates": [9.3286674, 44.3139042], "open": "18.00", "province": "GE"}, {"name": "GEPC05 - Commissariato Genova P.S. Centro", "address": "Piazza Matteotti, 2 GENOVA", "coordinates": [8.6976865, 44.5379869], "open": "14.00", "province": "GE"}, {"name": "GEPC09 - Commissariato Genova P.S. Cornigliano", "address": "Piazza Rizzolio, 25 GENOVA", "coordinates": [8.871785821921396, 44.416164800000004], "open": "14.00", "province": "GE"}, {"name": "GEPC06 - Commissariato Genova P.S. Foce Sturla", "address": "Via dei Mille, 12 GENOVA", "coordinates": [8.9818868, 44.3941124], "open": "20.00", "province": "GE"}, {"name": "GEPC02 - Commissariato Genova P.S. Nervi ", "address": "Piazza Duca degli Abruzzi, 6/B GENOVA", "coordinates": [9.0362827, 44.3848349], "open": "08.00", "province": "GE"}, {"name": "GEPC03 - Commissariato Genova P.S. Pr\u00e8", "address": "Via Balbi, 38/B GENOVA", "coordinates": [8.923355, 44.4163347], "open": "20.00", "province": "GE"}, {"name": "GEPC08 - Commissariato Genova P.S. San Fruttuoso", "address": "Via Marina di Robilant, 4 GENOVA", "coordinates": [8.9638269, 44.4078036], "open": "14.00", "province": "GE"}, {"name": "GEPC07 - Commissariato Genova P.S. Sestri", "address": "Via F. Da Persico, 1/A GENOVA", "coordinates": [8.849437525808648, 44.42645944912317], "open": "08.00", "province": "GE"}, {"name": "GEPC04 - Commissariato P.S. Rapallo", "address": "Piazzale Alfieri, 1 RAPALLO", "coordinates": [9.225627, 44.3477958], "open": "18.00", "province": "GE"}, {"name": "IMPQ60 - Questura di Imperia", "address": "Piazza del Duomo, 14 IMPERIA", "coordinates": [8.014901332511897, 43.875759], "open": "08.00", "province": "IM"}, {"name": "IMPC01 - Commisariato P.S. Sanremo", "address": "Corso Cavallotti, 16 SAN REMO", "coordinates": [7.7888105, 43.8215445], "open": "08.00", "province": "IM"}, {"name": "IMPC02 - Commissariato Ventimiglia", "address": "Via Aprosio, 21 VENTIMIGLIA", "coordinates": [7.6071482, 43.7920882], "open": "09.00", "province": "IM"}, {"name": "BLPQ60 - Questura di Belluno", "address": "Via Lungardo, 76 BELLUNO", "coordinates": [12.2197884, 46.1402717], "open": "08.00", "province": "BL"}, {"name": "BLPC01 - Commissariato Cortina D`Ampezzo", "address": "Largo Poste, 14 CORTINA D'AMPEZZO", "coordinates": [12.13572, 46.5386849], "open": "08.00", "province": "BL"}, {"name": "RCPQ60 - Questura di Reggio Calabria", "address": "Corso Giuseppe Garibaldi, 442 REGGIO CALABRIA", "coordinates": [15.8057958, 38.2889114], "open": "08.00", "province": "RC"}, {"name": "PNPQ60 - Questura di Pordenone", "address": "Piazzale Giovanni Palatucci 1 (ex via Fontane, 1) PORDENONE", "coordinates": [12.66271277647056, 45.96382135], "open": "00.00", "province": "PN"}, {"name": "VIPQ60 - Questura di Vicenza", "address": "Corso Mazzini, 213 VICENZA", "coordinates": [11.6539611, 45.7455507], "open": "08.00", "province": "VI"}, {"name": "VIPC01 - Commissariato Bassano del Grappa", "address": "Via Pecori Giraldi, 56/58 BASSANO DEL GRAPPA", "coordinates": [11.7225149, 45.765394], "open": "20.00", "province": "VI"}, {"name": "CAPQ60 - Questura di Cagliari", "address": "via Amat, 9 CAGLIARI", "coordinates": [9.2065227, 39.301867], "open": "09.00", "province": "CA"}, {"name": "CAPC01 - Commissariato Carbonia", "address": "Via Ala Italiana, 8 CARBONIA", "coordinates": [8.5227508, 39.1656078], "open": "09.00", "province": "CA"}, {"name": "CAPC02 - Commissariato Iglesias", "address": "Via Modena, 4 IGLESIAS", "coordinates": [8.5364383, 39.3101639], "open": "09.00", "province": "CA"}, {"name": "CAPC05 - Commissariato Commissariato Quartu S. Elena", "address": "Via Firenze, 52 QUARTU SANT'ELENA", "coordinates": [9.1816964, 39.245316], "open": "08.00", "province": "CA"}, {"name": "ENPQ60 - Questura di Enna", "address": "Via San Giuseppe, 2 ENNA", "coordinates": [14.5363947, 37.711681], "open": "08.00", "province": "EN"}, {"name": "ENPC02 - Commissariato Leonforte", "address": "Via Borz\u00ec, 31 LEONFORTE", "coordinates": [14.3887984, 37.6360078], "open": "08.00", "province": "EN"}, {"name": "ENPC03 - Commissariato Nicosia", "address": "Via Sen.Romano,4 NICOSIA", "coordinates": [14.397271, 37.747452], "open": "09.00", "province": "EN"}, {"name": "ENPC01 - Commissariato Piazza Armerina", "address": "Via Alessandro Manzoni, 70 PIAZZA ARMERINA", "coordinates": [14.3589035, 37.3743316], "open": "08.00", "province": "EN"}, {"name": "RGPQ60 - Questura di Ragusa", "address": "Via Ispettore Giovanni Lizzio RAGUSA", "coordinates": [14.7271696, 36.9152543], "open": "08.30", "province": "RG"}, {"name": "RGPC01 - Commissariato Comiso", "address": "Via Pietro Micca, 99/101 COMISO", "coordinates": [14.6128405, 36.9487545], "open": "09.00", "province": "RG"}, {"name": "RGPC02 - Commissariato Modica", "address": "Via del Campo Sportivo, 48 MODICA", "coordinates": [14.7657666, 36.8459904], "open": "08.00", "province": "RG"}, {"name": "RGPC03 - Commissariato Vittoria", "address": "Via Manuela Loi, 40 VITTORIA", "coordinates": [14.518954102162228, 36.94774835], "open": "08.00", "province": "RG"}, {"name": "CTPQ60 - Questura di Catania", "address": "Viale Africa, 29 CATANIA", "coordinates": [15.1033945, 37.5123816], "open": "09.00", "province": "CT"}, {"name": "FCPQ60 - Questura di Forl\u00ec Cesena", "address": "Corso Garibaldi, 116 FORLI-CESENA", "coordinates": [12.0341616, 44.2245831], "open": "08.00", "province": "FC"}, {"name": "FCPC01 - Commissariato Cesena", "address": "Via Don Minzoni, 350 CESENA", "coordinates": [12.2480832, 44.1317866], "open": "08.00", "province": "FC"}, {"name": "PEPQ60 - Questura di Pescara", "address": "Via Pesaro, 7 PESCARA", "coordinates": [14.2124622, 42.4633078], "open": "07.00", "province": "PE"}, {"name": "BNPQ60 - Questura di Benevento", "address": "Via Raffaele De Caro, 11 BENEVENTO", "coordinates": [14.787937056117922, 41.129992900000005], "open": "08.00", "province": "BN"}, {"name": "BNPC01 - Commissariato Telese Terme", "address": "Via Roma, 1 TELESE", "coordinates": [14.5332296, 41.2181662], "open": "09.00", "province": "BN"}, {"name": "ISPQ60 - Questura di Isernia", "address": "Via Palatucci snc ISERNIA", "coordinates": [14.2512398, 41.5972418], "open": "08.00", "province": "IS"}, {"name": "AVPQ60 - Questura di Avellino", "address": "Via Giovanni Palatucci, 16 AVELLINO", "coordinates": [14.7769441, 40.9165813], "open": "08.00", "province": "AV"}, {"name": "AVPC02 - Commissariato Ariano Irpino", "address": "Corso Vittorio Emanuele, 217 ARIANO IRPINO", "coordinates": [15.0832865, 41.1474786], "open": "08.00", "province": "AV"}, {"name": "AVPC04 - Commissariato Cervinara", "address": "Via Ciriago di Roma, 31 CERVINARA", "coordinates": [14.617699966021313, 41.020094150000006], "open": "15.00", "province": "AV"}, {"name": "AVPC03 - Commissariato Lauro di Nola", "address": "Viale dei Platani, 1 LAURO", "coordinates": [14.629467, 40.8799681], "open": "09.00", "province": "AV"}, {"name": "AVPC01 - Commissariato Sant`Angelo dei Lombardi", "address": "Via Giostra, 1 SANT`ANGELO DEI LOMBARDI", "coordinates": [15.177524, 40.9270301], "open": "10.00", "province": "AV"}, {"name": "TVPQ60 - Questura di Treviso", "address": "Piazza delle Istituzioni, Area Appiani, Edificio A TREVISO", "coordinates": [12.2290785, 45.6685908], "open": "08.00", "province": "TV"}, {"name": "TVPC01 - Commissariato Conegliano Veneto", "address": "Via Maggiore Piovesana, 13 CONEGLIANO", "coordinates": [12.3084363, 45.8863481], "open": "08.30", "province": "TV"}, {"name": "AGPQ60 - Questura di Agrigento", "address": "Piazza Vittorio Emanuele, 2 AGRIGENTO", "coordinates": [13.760667227824268, 37.1917411], "open": "09.00", "province": "AG"}, {"name": "AGPC05 - Commissariato Canicatt\u00ec", "address": "Via Ciaccio Montalto, 16 CANICATTI'", "coordinates": [13.835733, 37.3527825], "open": "09.15", "province": "AG"}, {"name": "AGPC02 - Commissariato Licata", "address": "Via Campobello, 106 LICATA", "coordinates": [13.9325293, 37.1086481], "open": "08.00", "province": "AG"}, {"name": "AGPC04 - Commissariato P. di Montechiaro", "address": "Via Brodolini, 2 PALMA DI MONTECHIARO", "coordinates": [13.775896, 37.1819441], "open": "09.15", "province": "AG"}, {"name": "AGPC01 - Commissariato P. Empedocle", "address": "Via Panarea 3A/3H PORTO EMPEDOCLE", "coordinates": [13.5200996, 37.2904678], "open": "09.00", "province": "AG"}, {"name": "AGPC03 - Commissariato Sciacca", "address": "Via Jacopo Ruffini, 12 SCIACCA", "coordinates": [13.0620278, 37.5081237], "open": "08.00", "province": "AG"}, {"name": "SAPQ60 - Questura di Salerno", "address": "Piazza Giovanni Amendola, 16 SALERNO", "coordinates": [15.4010886, 40.6585169], "open": "10.45", "province": "SA"}, {"name": "SAPC03 - Commissariato Battipaglia", "address": "Via Rosa Iemma, 110 BATTIPAGLIA", "coordinates": [14.9819844, 40.6002542], "open": "08.00", "province": "SA"}, {"name": "SAPC01 - Commissariato Cava dei Tirreni", "address": "Prolungameto Via Marconi, 52 CAVA DE` TIRRENI", "coordinates": [14.7062633, 40.7004616], "open": "00.00", "province": "SA"}, {"name": "SAPC02 - Commissariato Nocera Inferiore", "address": "Via Giovanni Falcone, 4 NOCERA INFERIORE", "coordinates": [14.6499064, 40.7528928], "open": "08.00", "province": "SA"}, {"name": "SAPC04 - Posto di Polizia c/o Univerist\u00e0 degli studi di Salerno", "address": "Via Ponte Don Melillo, 1 FISCIANO", "coordinates": [14.799443, 40.772812], "open": "08.00", "province": "SA"}, {"name": "SAPC05 - Commissariato Sarno", "address": "Via Roma, 1 SARNO", "coordinates": [14.6156074, 40.8129309], "open": "09.00", "province": "SA"}, {"name": "UDPQ60 - Questura di Udine", "address": "Viale Venezia, 31/33 UDINE", "coordinates": [13.2183891, 46.1155716], "open": "14.30", "province": "UD"}, {"name": "UDPC01 - Commissariato Cividale", "address": "Piazza Armando Diaz, 1 CIVIDALE DEL FRIULI", "coordinates": [13.4289166, 46.0938313], "open": "09.00", "province": "UD"}, {"name": "UDPC02 - Commissariato Tolmezzo", "address": "via Lequio, 16 TOLMEZZO", "coordinates": [13.015348, 46.4035694], "open": "00.00", "province": "UD"}, {"name": "CEPQ60 - Questura di Caserta", "address": "Piazza della Prefettura, 5 CASERTA", "coordinates": [14.3313528, 41.0752664], "open": "08.00", "province": "CE"}, {"name": "CEPC02 - Commissariato Aversa", "address": "Via San Lorenzo, 98 AVERSA", "coordinates": [14.1972542, 40.9784442], "open": "08.00", "province": "CE"}, {"name": "CEPC04 - Commissariato Castel Volturno", "address": "Viale delle Acacie - Localit\u00e0 Villaggio Coppola CASTEL VOLTURNO", "coordinates": [13.9408351, 41.034313], "open": "08.00", "province": "CE"}, {"name": "CEPC06 - Commissariato Maddaloni", "address": "Via Caudina MADDALONI", "coordinates": [14.3859024, 41.0341877], "open": "09.00", "province": "CE"}, {"name": "CEPC05 - Commissariato Marcianise", "address": "Via Montevergine, 5 MARCIANISE", "coordinates": [14.2984228, 41.0329966], "open": "08.00", "province": "CE"}, {"name": "CEPC01 - Commissariato Santa Maria C.V.", "address": "Via Federico Pezzella SANTA MARIA CAPUA VETERE", "coordinates": [14.2563971, 41.0799225], "open": "09.00", "province": "CE"}, {"name": "CEPC03 - Commissariato Sessa Aurunca", "address": "Viale 21 Luglio, 33 SESSA AURUNCA", "coordinates": [13.9347304, 41.2369344], "open": "08.00", "province": "CE"}, {"name": "COPQ60 - Questura di Como", "address": "Via Italia Libera, 10a COMO", "coordinates": [9.0833691, 45.8044279], "open": "08.00", "province": "CO"}, {"name": "TSPQ60 - Questura di Trieste", "address": "Via Tor Bandena 4/2 TRIESTE", "coordinates": [13.7708312, 45.6497598], "open": "08.00", "province": "TS"}, {"name": "TSPC01 - Commissariato Duino Aurisina", "address": "Frazione Sistiana, 19/B DUINO AURISINA", "coordinates": [13.639610092365185, 45.772886850000006], "open": "08.00", "province": "TS"}, {"name": "TSPC04 - Commissariato Muggia", "address": "Via G. D` Annunzio, 5 MUGGIA", "coordinates": [13.7710497, 45.5986173], "open": "09.15", "province": "TS"}, {"name": "TSPC05 - Commissariato Trieste Villa Opicina", "address": "Via Carsia, 37 TRIESTE", "coordinates": [13.7777175, 45.6889658], "open": "09.00", "province": "TS"}, {"name": "TSPC08 - Commissariato Trieste Rozzol Melara", "address": "Via Robert Koch, 8 TRIESTE", "coordinates": [13.823781834893044, 45.640989250000004], "open": "08.00", "province": "TS"}, {"name": "TSPC07 - Commissariato Trieste San Sabba", "address": "Via Mascagni, 9 TRIESTE", "coordinates": [13.8021066, 45.6222164], "open": "08.00", "province": "TS"}, {"name": "CHPQ60 - Questura di Chieti", "address": "Piazza Garibaldi, 17 CHIETI", "coordinates": [14.445259255408125, 42.30166255], "open": "09.00", "province": "CH"}, {"name": "CTPC01 - Commissariato Acireale", "address": "Corso Umberto, 181 ACIREALE", "coordinates": [15.1669788, 37.6172859], "open": "09.15", "province": "CT"}, {"name": "CTPC02 - Commissariato Adrano", "address": "Viale della regione, 67/A ADRANO", "coordinates": [14.82870853369239, 37.6668933], "open": "08.00", "province": "CT"}, {"name": "CTPC04 - Commissariato Caltagirone", "address": "Via Santa Maria di Gesu', 32 CALTAGIRONE", "coordinates": [14.519899, 37.2268889], "open": "08.00", "province": "CT"}, {"name": "CTPC03 - Commissariato Catania Borgo Ognina", "address": "Via Francesco Pensavalle, 44 CATANIA", "coordinates": [15.0853631, 37.5245714], "open": "08.00", "province": "CT"}, {"name": "CTPC05 - Commissariato Catania Stazione Centrale", "address": "via Teatro Massimo, 44 CATANIA", "coordinates": [15.0920234, 37.504146], "open": "08.00", "province": "CT"}, {"name": "CTPC07 - Commissariato Catania Stazione Librino", "address": "Via S.Teodoro, 4 CATANIA", "coordinates": [15.050102929699957, 37.49037469411045], "open": "08.00", "province": "CT"}, {"name": "CTPC06 - Commissariato Catania Nesima", "address": "Piazza Eroi D`Ungheria, 11 CATANIA", "coordinates": [15.05035615131396, 37.5075996], "open": "08.00", "province": "CT"}, {"name": "VEPQ60 - Questura di Venezia", "address": "Via Nicolodi, 21 VENEZIA", "coordinates": [12.2195432, 45.4689666], "open": "06.00", "province": "VE"}, {"name": "PDPQ60 - Questura di Padova", "address": "Piazzetta G. Palatucci, 5 PADOVA", "coordinates": [11.876627101070206, 45.40306045], "open": "08.00", "province": "PD"}, {"name": "MOPQ60 - Questura di Modena", "address": "Via Giovanni Palatucci, 15 MODENA", "coordinates": [10.9492708, 44.6460488], "open": "08.00", "province": "MO"}, {"name": "MOPC01 - Commissariato Carpi", "address": "Via Carlo Marx, 150 CARPI", "coordinates": [10.8752999, 44.7639962], "open": "08.00", "province": "MO"}, {"name": "MOPC02 - Commissariato Mirandola", "address": "Via Fulvia, 9 MIRANDOLA", "coordinates": [11.0682662, 44.8869434], "open": "10.00", "province": "MO"}, {"name": "MOPC03 - Commissariato Sassuolo", "address": "Via Brigata Folgore, 24 SASSUOLO", "coordinates": [10.7937651, 44.5404954], "open": "08.30", "province": "MO"}, {"name": "GOPQ60 - Questura di Gorizia", "address": "P.zza Cavour, 8 GORIZIA", "coordinates": [13.6251192, 45.9422502], "open": "09.00", "province": "GO"}, {"name": "GOPC01 - Commissariato Monfalcone", "address": "Via Foscolo, 12 MONFALCONE", "coordinates": [13.5405694, 45.8047166], "open": "08.00", "province": "GO"}, {"name": "BRPQ60 - Questura di Brindisi", "address": "via Perrino, 1 BRINDISI", "coordinates": [17.9510169, 40.6323101], "open": "09.30", "province": "BR"}, {"name": "LEPQ60 - Questura di Lecce", "address": "viale Otranto, 1 LECCE", "coordinates": [18.171965, 40.3473884], "open": "09.00", "province": "LE"}, {"name": "CHPC01 - Commissariato Lanciano", "address": "Via Perretti, 1 LANCIANO", "coordinates": [14.3907794, 42.2305316], "open": "08.00", "province": "CH"}, {"name": "CHPC02 - Commissariato Vasto", "address": "Via Bachelet, 1 VASTO", "coordinates": [14.7081695, 42.1227592], "open": "10.00", "province": "CH"}, {"name": "REPQ60 - Questura di Reggio Emilia", "address": "Via Dante Alighieri, 10 REGGIO EMILIA", "coordinates": [10.5452272, 44.8389355], "open": "08.00", "province": "RE"}, {"name": "TAPQ60 - Questura di Taranto", "address": "via Giovanni Palatucci, 5 TARANTO", "coordinates": [17.2618896, 40.4441154], "open": "09.00", "province": "TA"}, {"name": "TAPC04 - Commissariato Grottaglie", "address": "via P. Togliatti, 13 GROTTAGLIE", "coordinates": [17.4342206, 40.5361927], "open": "09.00", "province": "TA"}, {"name": "TAPC01 - Commissariato Manduria", "address": "via Pirro Varrone, 4 MANDURIA", "coordinates": [17.6250605, 40.4014981], "open": "00.00", "province": "TA"}, {"name": "TAPC02 - Commissariato Martina Franca", "address": "via Pietro del Tocco, 74 MARTINA FRANCA", "coordinates": [17.345749, 40.7001304], "open": "09.00", "province": "TA"}, {"name": "SRPQ60 - Questura di Siracusa", "address": "Viale Scala Greca, 248 SIRACUSA", "coordinates": [15.2696664, 37.0942962], "open": "08.00", "province": "SR"}, {"name": "SRPC02 - Commissariato Augusta", "address": "Via Cristoforo Colombo, 1 AUGUSTA", "coordinates": [7.6668942, 45.0554345], "open": "08.00", "province": "SR"}, {"name": "SRPC03 - Commissariato Avola", "address": "Via Siracusa, 65 AVOLA", "coordinates": [15.1421564, 36.9138041], "open": "08.00", "province": "SR"}, {"name": "SRPC04 - Commissariato Lentini", "address": "Via Giuseppe Di Mari nr.3 LENTINI", "coordinates": [14.9986741, 37.2974489], "open": "08.30", "province": "SR"}, {"name": "SRPC06 - Commissariato Pachino", "address": "Via Tafuri, 56 PACHINO", "coordinates": [15.0837918, 36.713272], "open": "09.00", "province": "SR"}, {"name": "SRPC01 - Commissariato Priolo Gargallo", "address": "Via Venezia, 1/B PRIOLO GARGALLO", "coordinates": [15.1903728, 37.1534805], "open": "09.00", "province": "SR"}, {"name": "FGPQ60 - Questura di Foggia", "address": "Via Antonio Gramsci, 1 FOGGIA", "coordinates": [15.5633474, 41.4519102], "open": "09.00", "province": "FG"}, {"name": "FGPC01 - Commissariato Cerignola", "address": "Via Jesolo, 2 CERIGNOLA", "coordinates": [15.9098081, 41.2649316], "open": "10.00", "province": "FG"}, {"name": "FGPC02 - Commissariato Lucera", "address": "Via Po snc LUCERA", "coordinates": [15.3276092, 41.5020211], "open": "09.00", "province": "FG"}, {"name": "FGPC03 - Commissariato Manfredonia", "address": "Via G. di Vittorio, 305 MANFREDONIA", "coordinates": [15.895184858846815, 41.61334735], "open": "08.00", "province": "FG"}, {"name": "FGPC04 - Commissariato San Severo", "address": "Via Filippo D`Alfonso, 78 SAN SEVERO", "coordinates": [15.3776211, 41.6897761], "open": "08.00", "province": "FG"}, {"name": "NAPQ60 - Questura di Napoli", "address": "Via S. Tommaso d'Aquino (ex Pal. ENEL) NAPOLI", "coordinates": [14.251647295689398, 40.842765549999996], "open": "08.30", "province": "NA"}, {"name": "NAPC08 - Commissariato Acerra", "address": "Via Torquato Tasso s.n.c. ACERRA", "coordinates": [14.3750083, 40.9460532], "open": "09.00", "province": "NA"}, {"name": "NAPC37 - Commissariato Afragola", "address": "Via Salvator Rosa, 1 AFRAGOLA", "coordinates": [14.3003796, 40.9295276], "open": "09.00", "province": "NA"}, {"name": "NAPC11 - Commissariato Capri", "address": "via Roma, 68/A CAPRI", "coordinates": [14.2399238, 40.5499737], "open": "09.00", "province": "NA"}, {"name": "NAPC13 - Commissariato Castellammare di Stabia", "address": "Via Alcide De Gasperi, 175 CASTELLAMMARE DI STABIA", "coordinates": [14.4804813, 40.6943046], "open": "08.00", "province": "NA"}, {"name": "NAPC39 - Commissariato Frattamaggiore", "address": "Via Padre Mario Vergara, 43 FRATTAMAGGIORE", "coordinates": [14.2788052, 40.9400472], "open": "09.00", "province": "NA"}, {"name": "NAPC14 - Commissariato Giugliano Villaricca", "address": "Via Antica Giardini GIUGLIANO IN CAMPANIA", "coordinates": [14.2129937, 40.9314553], "open": "09.00", "province": "NA"}, {"name": "NAPC10 - Commissariato Napoli Bagnoli", "address": "Via Coroglio, 10 NAPOLI", "coordinates": [14.1757835, 40.8008248], "open": "11.00", "province": "NA"}, {"name": "NAPC41 - Commissariato Napoli Chiaiano", "address": "Via Raffaelli, 8 NAPOLI", "coordinates": [14.216890196822222, 40.88907680848388], "open": "08.00", "province": "NA"}, {"name": "NAPC33 - Commissariato Napoli Dante", "address": "Via Tarsia, 38 NAPOLI", "coordinates": [14.2478663, 40.8483209], "open": "08.00", "province": "NA"}, {"name": "NAPC32 - Commissariato Napoli Decumani", "address": "via San Biagio dei Librai, 85 NAPOLI", "coordinates": [14.2596948, 40.849868], "open": "08.00", "province": "NA"}, {"name": "NAPC31 - Commissariato Napoli Ferdinando", "address": "Riviera di Chiaia, 185 NAPOLI", "coordinates": [14.2389552, 40.8331424], "open": "10.00", "province": "NA"}, {"name": "NAPC19 - Commissariato Napoli Poggioreale", "address": "Via Stadera, 42 NAPOLI", "coordinates": [14.3007151, 40.8700489], "open": "16.00", "province": "NA"}, {"name": "NAPC21 - Commissariato Napoli Ponticelli", "address": "Via Commissario Ammaturo NAPOLI", "coordinates": [14.3277003, 40.8638404], "open": "09.00", "province": "NA"}, {"name": "NAPC23 - Commissariato Napoli Posillipo", "address": "Via Manzoni, 249 NAPOLI", "coordinates": [14.3501964, 40.8721376], "open": "08.00", "province": "NA"}, {"name": "NAPC25 - Commissariato Napoli San Carlo Arena", "address": "Calata Capodichino, 9 NAPOLI", "coordinates": [14.2714307, 40.8817651], "open": "08.00", "province": "NA"}, {"name": "NAPC40 - Commissariato Napoli Scampia", "address": "Viale della Resistenza s.n. NAPOLI", "coordinates": [14.1772343, 40.9059988], "open": "08.00", "province": "NA"}, {"name": "NAPC34 - Commissariato Napoli Secondigliano", "address": "Corso Secondigliano snc angolo via Ferrovia NAPOLI", "coordinates": [14.265080641000377, 40.8887653526394], "open": "08.00", "province": "NA"}, {"name": "NAPC03 - Commissariato Napoli Vasto Arenaccia ", "address": "Centro Direzionale di Napoli, isola F/4 NAPOLI", "coordinates": [14.27985494099906, 40.857602115269906], "open": "09.00", "province": "NA"}, {"name": "NAPC29 - Commissariato Napoli Vomero", "address": "Via Giambattista Ruoppolo, 33 NAPOLI", "coordinates": [14.2273316, 40.8506875], "open": "08.00", "province": "NA"}, {"name": "NAPC18 - Commissariato Nola", "address": "Via Onorevole Francesco Napolitano - P.co Napolita NOLA", "coordinates": [14.5327402, 40.9210826], "open": "07.00", "province": "NA"}, {"name": "NAPC20 - Commissariato Pompei", "address": "Via Sacra, 1 POMPEI", "coordinates": [14.5004029, 40.7485816], "open": "08.00", "province": "NA"}, {"name": "NAPC22 - Commissariato Portici ", "address": "Via Salute, 45 PORTICI", "coordinates": [14.34905, 40.8178616], "open": "09.00", "province": "NA"}, {"name": "NAPC24 - Commissariato Pozzuoli", "address": "Piazza Italo Balbo s.n.c. POZZUOLI", "coordinates": [14.1210314, 40.8245109], "open": "07.00", "province": "NA"}, {"name": "NAPC38 - Commissariato San Giorgio a Cremano", "address": "Via Salvatore Rosa, 57 SAN GIORGIO A CREMANO", "coordinates": [14.3341677, 40.8292962], "open": "09.00", "province": "NA"}, {"name": "NAPC05 - Commissariato San Giuseppe Vesuviano", "address": "Via Scudieri 3^ trav.sa a dx SAN GIUSEPPE VESUVIANO", "coordinates": [14.504436, 40.829811], "open": "08.00", "province": "NA"}, {"name": "NAPC27 - Commissariato Sorrento", "address": "Vicolo Terzo Rota, 14 SORRENTO", "coordinates": [14.3837696, 40.6278107], "open": "09.00", "province": "NA"}, {"name": "NAPC06 - Commissariato Torre Annunziata", "address": "Corso Umberto I\u00b0, 69 TORRE ANNUNZIATA", "coordinates": [14.4421178, 40.7568576], "open": "09.00", "province": "NA"}, {"name": "NAPC12 - Commissariato Palazzo di Giustizia", "address": "Piazza cenni  NAPOLI", "coordinates": [14.2818966, 40.8604612], "open": "08.00", "province": "NA"}, {"name": "NAPC07 - Commissariato Torre Del Greco", "address": "Via Sedivola, 40 TORRE DEL GRECO", "coordinates": [14.3682813, 40.7879211], "open": "08.30", "province": "NA"}, {"name": "CBPQ60 - Questura di Campobasso", "address": "Via V. Tiberio, 95 CAMPOBASSO", "coordinates": [14.6613026, 41.5649238], "open": "09.00", "province": "CB"}, {"name": "SRPC07 - Commissariato Noto", "address": "Via Montessori, 3 NOTO", "coordinates": [15.0684711, 36.8970615], "open": "09.00", "province": "SR"}, {"name": "AQPQ60 - Questura di L'Aquila", "address": "Via Strinella, 1 c/o Strinella 88 L'AQUILA", "coordinates": [13.40707703902733, 42.3550496], "open": "09.00", "province": "AQ"}, {"name": "AQPC01 - Commissariato Avezzano", "address": "Via Salvador Allende, 10 AVEZZANO", "coordinates": [13.42521, 42.0423311], "open": "09.00", "province": "AQ"}, {"name": "AQPC02 - Commissariato Sulmona", "address": "Via Sallustio, 44 SULMONA", "coordinates": [13.926394525640696, 42.05784465], "open": "08.00", "province": "AQ"}, {"name": "BZPQ60 - Questura di Bolzano", "address": "Largo Giovanni Palatucci, 1 BOLZANO", "coordinates": [11.349769, 46.4946065], "open": "08.30", "province": "BZ"}, {"name": "BZPC02 - Commissariato Brennero", "address": "via San Valentino, 32 BRENNERO", "coordinates": [11.5037584, 47.0017846], "open": "08.30", "province": "BZ"}, {"name": "BZPC01 - Commissariato Bressanone", "address": "via Vittorio Veneto, 13 BRESSANONE", "coordinates": [11.6447076, 46.6971071], "open": "05.00", "province": "BZ"}, {"name": "BZPC03 - Commissariato Merano", "address": "Piazza del Grano, 2 MERANO", "coordinates": [11.1587086, 46.672282], "open": "08.45", "province": "BZ"}, {"name": "BZPC04 - Commissariato San Candido", "address": "via Stazione, 5 SAN CANDIDO", "coordinates": [12.2764887, 46.7338139], "open": "01.00", "province": "BZ"}, {"name": "BZPC05 - Commissariato Malles Venosta", "address": "via Stazione, 37 MALLES VENOSTA", "coordinates": [10.5469693311442, 46.68569615], "open": "09.00", "province": "BZ"}, {"name": "TEPQ60 - Questura di Teramo", "address": "Viale Bovio, 22 TERAMO", "coordinates": [13.6952865588791, 42.663397450000005], "open": "08.00", "province": "TE"}, {"name": "TEPC01 - Commissariato Atri", "address": "Viale Mattucci,15 TERAMO", "coordinates": [13.993897627577752, 42.57470215796867], "open": "09.00", "province": "TE"}, {"name": "TEPC02 - Polizia Stradale Giulianova", "address": "Via Filippo Turati, 168 TERAMO", "coordinates": [13.926447, 42.8544878], "open": "08.00", "province": "ZZ"}, {"name": "FEPQ60 - Questura di Ferrara", "address": "Corso Ercole I d'Este, 34 FERRARA", "coordinates": [11.6229003, 44.845607], "open": "08.00", "province": "FE"}, {"name": "LUPQ60 - Questura di Lucca", "address": "Corso Garibaldi,115 LUCCA", "coordinates": [10.5052948, 43.8398481], "open": "09.00", "province": "LU"}, {"name": "LUPC02 - Commissariato Forte dei Marmi", "address": "via Rosseti e Bandini, 29 FORTE DEI MARMI", "coordinates": [10.1567448, 43.9714918], "open": "10.30", "province": "LU"}, {"name": "LUPC01 - Commissariato Viareggio", "address": "Via Fratelli Cervi, 32 VIAREGGIO", "coordinates": [10.256820819066991, 43.87575255], "open": "08.00", "province": "LU"}, {"name": "ROPQ60 - Questura di Rovigo", "address": "Viale Tre Martiri nr.40 ROVIGO", "coordinates": [11.8100411, 45.0753732], "open": "08.30", "province": "RO"}, {"name": "ROPC01 - Commissariato Adria", "address": "Via Giovanni Palatucci, 1 ADRIA", "coordinates": [12.0572, 45.0531228], "open": "08.00", "province": "RO"}, {"name": "ROPC02 - Commissariato Porto Tolle", "address": "Via Giacomo Matteotti, 345 PORTO TOLLE", "coordinates": [12.3317355, 44.9518172], "open": "09.00", "province": "RO"}, {"name": "BAPQ60 - Questura di Bari", "address": "Via G. Murat, 33 BARI", "coordinates": [13.5943362, 42.8522288], "open": "20.30", "province": "BA"}, {"name": "BAPC16 - Commissariato Bari Nuova Carrassi", "address": "Via Pietro Leonida Laforgia, 30 BARI", "coordinates": [16.88763886799516, 41.10030603762947], "open": "08.00", "province": "BA"}, {"name": "BAPC17 - Commissariato Bari San Nicola", "address": "Piazza San Pietro, 31 BARI", "coordinates": [16.870055, 41.1319922], "open": "09.00", "province": "BA"}, {"name": "BTPC01 - Commissariato Barletta", "address": "Viale Alessandro Manzoni, 29 BARLETTA", "coordinates": [16.2836247, 41.3094288], "open": "09.00", "province": "BT"}, {"name": "BTPC02 - Commissariato Canosa di Puglia", "address": "Corso Garibaldi, 247 CANOSA DI PUGLIA", "coordinates": [16.05259, 41.2157726], "open": "10.00", "province": "BT"}, {"name": "BAPC06 - Commissariato Corato", "address": "Via Messina, 54 CORATO", "coordinates": [16.410748, 41.1476532], "open": "08.30", "province": "BA"}, {"name": "BAPC07 - Commissariato Gravina in Puglia", "address": "Via Emilio Guida, 1 GRAVINA IN PUGLIA", "coordinates": [16.4268796, 40.8188603], "open": "08.00", "province": "BA"}, {"name": "BAPC14 - Commissariato Monopoli", "address": "Via Filippo Turati, 11 MONOPOLI", "coordinates": [17.299948, 40.9522369], "open": "09.00", "province": "BA"}, {"name": "BTPC03 - Commissariato Trani", "address": "Via Sant'Annibale Maria di Francia, 100 TRANI", "coordinates": [16.4203473, 41.2694215], "open": "09.00", "province": "BT"}, {"name": "SIPQ60 - Questura di Siena", "address": "P.zza Jacopo della Quercia, 1 SIENA", "coordinates": [11.32956221124261, 43.3174521], "open": "08.45", "province": "SI"}, {"name": "SIPC01 - Commissariato Chiusi Chianciano", "address": "Via Cassia Aurelia , 12 CHIUSI", "coordinates": [11.9497343, 43.0080025], "open": "08.00", "province": "SI"}, {"name": "SIPC02 - Commissariato Poggibonsi", "address": "Loc. SALCETO Nr.55 POGGIBONSI", "coordinates": [11.148762, 43.4677215], "open": "08.00", "province": "SI"}, {"name": "PIPQ60 - Questura di Pisa", "address": "Via Mario Lalli, 3 PISA", "coordinates": [10.407841962438987, 43.7173101], "open": "09.00", "province": "PI"}, {"name": "PIPC01 - Commissariato Pontedera", "address": "P.zza Trieste, 17 PONTEDERA", "coordinates": [10.6422912, 43.6649789], "open": "08.00", "province": "PI"}, {"name": "PIPC02 - Commissariato Volterra", "address": "P.zza Priori, 12 VOLTERRA", "coordinates": [10.8597912, 43.4021423], "open": "09.00", "province": "PI"}, {"name": "BOPQ60 - Questura di Bologna", "address": "Via Sant'Isaia,n.1 BOLOGNA", "coordinates": [11.3335221, 44.4937055], "open": "00.00", "province": "BO"}, {"name": "BOPC01 - Commissariato Due Torri San Francesco", "address": "Via del Pratello,21 BOLOGNA", "coordinates": [11.3347541, 44.4955841], "open": "08.00", "province": "BO"}, {"name": "BOPC02 - Commissariato Bologna Santa Viola", "address": "Via Marchioni, 4 BOLOGNA", "coordinates": [11.286516, 44.4931259], "open": "10.00", "province": "BO"}, {"name": "BOPC03 - Commissariato Bolognina Pontevecchio", "address": "Via Lombardia, 35 BOLOGNA", "coordinates": [11.3796858, 44.4754784], "open": "09.00", "province": "BO"}, {"name": "BOPC04 - Commissariato Imola", "address": "Viale Rivalta, 59 IMOLA", "coordinates": [11.7133825, 44.3516093], "open": "08.00", "province": "BO"}, {"name": "BOPC05 - Commissariato San Giovanni in Persiceto", "address": "Piazza Del Popolo, 24 SAN GIOVANNI IN PERSICETO", "coordinates": [11.1877665, 44.6386841], "open": "08.00", "province": "BO"}, {"name": "BTPQ60 - Questura Barletta Andria Trani", "address": "Via dell'indipendenza, 4 ANDRIA", "coordinates": [16.290893863743978, 41.2334298], "open": "09.00", "province": "BT"}, {"name": "BAPC04 - Commissariato Bitonto", "address": "Via Tommaso Traetta, 5 BITONTO", "coordinates": [16.6962376, 41.1063283], "open": "08.00", "province": "BA"}, {"name": "GRPQ60 - Questura di Grosseto", "address": "Piazza Giovanni Palatucci 1 GROSSETO", "coordinates": [11.110577225887418, 42.77751085], "open": "08.00", "province": "GR"}, {"name": "ARPQ60 - Questura di Arezzo", "address": "Via Filippo Lippi AREZZO", "coordinates": [11.8722861, 43.4650851], "open": "08.00", "province": "AR"}, {"name": "LIPQ60 - Questura di Livorno", "address": "V.le Boccaccio, 5 LIVORNO", "coordinates": [10.3236143, 43.5391548], "open": "12.30", "province": "LI"}, {"name": "LIPC02 - Commissariato Cecina", "address": "Corso Matteotti, 313 CECINA", "coordinates": [10.5180726, 43.3099951], "open": "08.00", "province": "LI"}, {"name": "LIPC03 - Commissariato Piombino", "address": "Via Ferrer, 48 PIOMBINO", "coordinates": [10.5296327, 42.9235333], "open": "09.00", "province": "LI"}, {"name": "LIPC04 - Commissariato Portoferraio", "address": "Viale Manzoni, 4 PORTOFERRAIO", "coordinates": [10.3246913, 42.8151998], "open": "09.00", "province": "LI"}, {"name": "LIPC01 - Commissariato Rosignano Solvay", "address": "Via Aurelia, 339 ROSIGNANO MARITTIMO", "coordinates": [10.5017986, 43.3725437], "open": "09.00", "province": "LI"}, {"name": "BRPC01 - Commissariato Ostuni", "address": "Corso Vittorio Emanuele II, 93  OSTUNI", "coordinates": [17.5835835, 40.7296502], "open": "07.00", "province": "BR"}, {"name": "BRPC02 - Commissariato Mesagne", "address": "Via Tito Speri, 1 MESAGNE", "coordinates": [17.8019682, 40.5628095], "open": "08.00", "province": "BR"}, {"name": "ARPC01 - Commissariato Montevarchi", "address": "Viale A. Diaz, 147 MONTEVARCHI", "coordinates": [11.5675911, 43.5234999], "open": "08.00", "province": "AR"}, {"name": "ARPC02 - Commissariato San Sepolcro", "address": "Via dei Lorena, 50 SANSEPOLCRO", "coordinates": [12.1352547, 43.5744626], "open": "08.00", "province": "AR"}, {"name": "VEPC01 - Commissariato Chioggia", "address": "Corso del Popolo, 973 CHIOGGIA", "coordinates": [12.2795957, 45.2213613], "open": "08.30", "province": "VE"}, {"name": "VEPC02 - Commissariato Jesolo", "address": "Via Pietro Sassaro, 1 JESOLO", "coordinates": [12.634266099999989, 45.50514870000001], "open": "08.30", "province": "VE"}, {"name": "VEPC04 - Commissariato Portogruaro", "address": "Via Stadio, 55 PORTOGRUARO", "coordinates": [12.8355027, 45.7795771], "open": "09.00", "province": "VE"}, {"name": "CSPQ60 - Questura di Cosenza", "address": "Via Domenico Frugiuele, 8 COSENZA", "coordinates": [16.2509297, 39.2991165], "open": "09.00", "province": "CS"}, {"name": "CSPC03 - Commissariato Castrovillari", "address": "Via Emanuela Loi snc CASTROVILLARI", "coordinates": [16.2026207, 39.8167899], "open": "09.30", "province": "CS"}, {"name": "CSPC02 - Commissariato Paola", "address": "Piazzale Stazione, 4 PAOLA", "coordinates": [16.039588, 39.359893], "open": "08.00", "province": "CS"}, {"name": "CSPC04 - Commissariato P.S. Corigliano-Rossano", "address": "Via G. Di Vittorio ROSSANO CALABRO", "coordinates": [12.6712171, 41.7898601], "open": "09.00", "province": "CS"}, {"name": "PTPQ60 - Questura di Pistoia", "address": "Via Pertini, 150 PISTOIA", "coordinates": [10.7446709, 43.836566], "open": "09.00", "province": "PT"}, {"name": "VTPQ60 - Questura di Viterbo", "address": "Via Maresciallo Mariano Romiti, 80 VITERBO", "coordinates": [12.1101943, 42.4113797], "open": "09.00", "province": "VT"}, {"name": "VTPC01 - Commissariato Tarquinia", "address": "Piazza Trento e Trieste, 6 TARQUINIA", "coordinates": [11.758294237867997, 42.254110499999996], "open": "09.00", "province": "VT"}, {"name": "RNPQ60 - Questura di Rimini", "address": "Piazza Bornaccini nr.1 RIMINI", "coordinates": [12.5672237, 44.0517948], "open": "09.00", "province": "RN"}, {"name": "PRPQ60 - Questura di Parma", "address": "Borgo della Posta, 14 PARMA", "coordinates": [10.3323016, 44.7996014], "open": "09.00", "province": "PR"}, {"name": "SOPQ60 - Questura di Sondrio", "address": "Via Nazario Sauro, 72 SONDRIO", "coordinates": [9.877382178195159, 46.168595249999996], "open": "08.30", "province": "SO"}, {"name": "MSPQ60 - Questura di Massa Carrara", "address": "Via del Patriota, 1 MASSA-CARRARA", "coordinates": [10.1394273, 44.0334709], "open": "08.00", "province": "MS"}, {"name": "MSPC02 - Commissariato Carrara", "address": "Piazza II Giugno, 17 CARRARA", "coordinates": [10.0962859, 44.0769976], "open": "09.00", "province": "MS"}, {"name": "RCPC08 - Commissariato Bovalino", "address": "Via Dromo I, 65 BOVALINO", "coordinates": [16.174004, 38.148971], "open": "09.00", "province": "RC"}, {"name": "RCPC07 - Commissariato Cittanova", "address": "Via Nervi CITTANOVA", "coordinates": [16.0781448, 38.3478525], "open": "09.00", "province": "RC"}, {"name": "RCPC03 - Commissariato Condofuri", "address": "Via Peripoli CONDOFURI", "coordinates": [15.8619827, 37.9264637], "open": "08.00", "province": "RC"}, {"name": "RCPC04 - Commissariato Gioia Tauro", "address": "Via Provinciale per Rizziconi GIOIA TAURO", "coordinates": [15.898995, 38.423974], "open": "09.00", "province": "RC"}, {"name": "RCPC09 - Commissariato Polistena", "address": "Piazzale Pace, 3 POLISTENA", "coordinates": [16.0774549, 38.4065094], "open": "08.00", "province": "RC"}, {"name": "RCPC06 - Commissariato Siderno Marina", "address": "Via Amendola, 77 SIDERNO", "coordinates": [16.2883783, 38.2664059], "open": "09.00", "province": "RC"}, {"name": "RCPC10 - Commissariato Turianova", "address": "Viale San Martino,11 REGGIO CALABRIA", "coordinates": [15.9976164, 38.3559956], "open": "08.00", "province": "RC"}, {"name": "RCPC01 - Commissariato Villa San Giovanni", "address": "Viale Rocco Larussa, 25 VILLA SAN GIOVANNI", "coordinates": [15.6389465, 38.2273963], "open": "09.00", "province": "RC"}, {"name": "MCPQ60 - Questura di Macerata", "address": "Piazza della Libert\u00e0, 15 MACERATA", "coordinates": [13.4535179, 43.3004991], "open": "08.00", "province": "MC"}, {"name": "MCPC01 - Commissariato Civitanova Marche", "address": "Via G. D`Annunzio, 14/16 CIVITANOVA MARCHE", "coordinates": [13.7229297, 43.3055233], "open": "08.00", "province": "MC"}, {"name": "LEPC01  - Commissariato Galatina", "address": "Via Salacino, 48 GALATINA", "coordinates": [18.1570876, 40.1707053], "open": "09.15", "province": "LE"}, {"name": "LEPC02 - Commissariato Gallipoli", "address": "Via Lecce, 131 GALLIPOLI", "coordinates": [17.9982672, 40.0637732], "open": "08.30", "province": "LE"}, {"name": "LEPC03 - Commissariato Nard\u00f2", "address": "Via Duca Abruzzi, 27 NARDO'", "coordinates": [18.0291616, 40.181617], "open": "11.30", "province": "LE"}, {"name": "LEPC05 - Commissariato Otranto", "address": "Via Pioppi snc OTRANTO", "coordinates": [18.4907392, 40.1422349], "open": "09.00", "province": "LE"}, {"name": "LEPC04 - Commissariato Taurisano", "address": "Viale Eroi d`Italia, 170 TAURISANO", "coordinates": [18.2200789, 39.9537654], "open": "08.00", "province": "LE"}, {"name": "PUPQ60 - Questura di Pesaro Urbino", "address": "Via G. Bruno, 5 PESARO E URBINO", "coordinates": [12.9157028, 43.9060509], "open": "09.00", "province": "PU"}, {"name": "PUPC01 - Commissariato Fano", "address": "Via Costituzione, 21 FANO", "coordinates": [13.011385899999995, 43.8391232], "open": "07.00", "province": "PU"}, {"name": "PUPC02 - Commissariato Urbino", "address": "Piazza Della Repubblica nr.13, c/o Collegio Raffaello URBINO", "coordinates": [13.011385899999995, 43.8391232], "open": "08.30", "province": "PU"}, {"name": "FIPQ60 - Questura di Firenze", "address": "Via della Fortezza, 17 FIRENZE", "coordinates": [11.2505057, 43.7801373], "open": "08.30", "province": "FI"}, {"name": "FIPC03 - Commissariato Empoli", "address": "Piazza Gramsci, 46 EMPOLI", "coordinates": [10.9504476, 43.7208111], "open": "08.30", "province": "FI"}, {"name": "FIPC04 - Commissariato Firenze Oltrarno", "address": "Piazza del Tiratoio, 6 FIRENZE", "coordinates": [11.242399, 43.7705702], "open": "08.00", "province": "FI"}, {"name": "FIPC01 - Commissariato Firenze Rifredi-Peretola", "address": "Via Sgambati, 21 FIRENZE", "coordinates": [11.2065053, 43.7984287], "open": "08.30", "province": "FI"}, {"name": "FIPC06 - Commissariato Firenze San Giovanni", "address": "Firenze Lungarno della Zecca Vecchia 20/A FIRENZE", "coordinates": [11.265817181601447, 43.7666068347898], "open": "08.30", "province": "FI"}, {"name": "FIPC02 - Commissariato Sesto Fiorentino", "address": "Via Gramsci, 522 SESTO FIORENTINO", "coordinates": [11.2120969, 43.8279039], "open": "08.30", "province": "FI"}, {"name": "LTPQ60 - Questura di Latina", "address": "Corso della Repubblica, 330 - Palazzo M LATINA", "coordinates": [12.903233151534767, 41.46886635], "open": "08.30", "province": "LT"}, {"name": "LTPC05 - Commissariato Cisterna", "address": "Via Benedetto Croce, 7B CISTERNA DI LATINA", "coordinates": [12.8245052, 41.5952906], "open": "08.00", "province": "LT"}, {"name": "LTPC01 - Commissariato Fondi", "address": "Via Francesco Evangelista, 5 FONDI", "coordinates": [13.4371791, 41.3516129], "open": "08.00", "province": "LT"}, {"name": "LTPC02 - Commissariato Formia", "address": "Via Olivastro Spaventola, snc FORMIA", "coordinates": [13.629613, 41.2718778], "open": "09.00", "province": "LT"}, {"name": "LTPC03 - Commissariato Gaeta", "address": "Viale America,9 GAETA", "coordinates": [13.5613424, 41.2254113], "open": "09.00", "province": "LT"}, {"name": "LTPC04 - Commissariato Terracina", "address": "Via Petrarca, 14 TERRACINA", "coordinates": [13.2492312, 41.2859101], "open": "08.30", "province": "LT"}, {"name": "CLPQ60 - Questura di Caltanissetta", "address": "Via Catania, 1 CALTANISSETTA", "coordinates": [14.0316013, 37.5895104], "open": "09.15", "province": "CL"}, {"name": "CLPC01 - Commissariato Gela", "address": "Via Calogero Zucchetto, 7 GELA", "coordinates": [14.2372328407261, 37.0774887], "open": "09.00", "province": "CL"}, {"name": "CLPC02 - Commissariato Niscemi", "address": "Via Mario Gori, 375 NISCEMI", "coordinates": [14.397964793814433, 37.145643750000005], "open": "08.00", "province": "CL"}, {"name": "RAPQ60 - Questura di Ravenna", "address": "Viale Enrico Berlinguer, 20 RAVENNA", "coordinates": [12.1941809, 44.402994], "open": "08.30", "province": "RA"}, {"name": "RAPC02 - Commissariato Faenza", "address": "Via San Silvestro, 19 FAENZA", "coordinates": [11.887519, 44.2958048], "open": "09.00", "province": "RA"}, {"name": "RAPC01 - Commissariato Lugo di Romagna", "address": "Via Tommaso Emaldi, 23 LUGO", "coordinates": [11.9074749, 44.4185126], "open": "08.30", "province": "RA"}, {"name": "ANPQ60 - Questura di Ancona", "address": "Via G. Gervasoni, 19 ANCONA", "coordinates": [13.5177533042813, 43.60851365], "open": "08.00", "province": "AN"}, {"name": "ANPC01 - Commissariato Fabriano", "address": "Via Dante, 21 FABRIANO", "coordinates": [12.9239227, 43.347844], "open": "08.30", "province": "AN"}, {"name": "ANPC02 - Commissariato Jesi", "address": "Via Marco Polo, 1 JESI", "coordinates": [13.2532112, 43.5192007], "open": "08.15", "province": "AN"}, {"name": "ANPC03 - Commissariato Osimo", "address": "Piazza Marconi, 7 OSIMO", "coordinates": [13.484154687976421, 43.4857957], "open": "08.00", "province": "AN"}, {"name": "ANPC04 - Commissariato Senigallia", "address": "Via Rosmini, 13/15 SENIGALLIA", "coordinates": [13.2167113, 43.7053606], "open": "08.30", "province": "AN"}, {"name": "PGPQ60 - Questura di Perugia", "address": "Via del tabacchificio, 21 PERUGIA", "coordinates": [12.3658714, 43.1087407], "open": "08.30", "province": "PG"}, {"name": "PGPC01 - Commissariato Assisi", "address": "Via Sant'Antonio, 3 ASSISI", "coordinates": [12.6150419, 43.0701898], "open": "09.00", "province": "PG"}, {"name": "PGPC05 - Commissariato Citt\u00e0 di Castello", "address": "Via R. Morandi, 37 CITTA` DI CASTELLO", "coordinates": [12.2209792, 43.4813702], "open": "08.00", "province": "PG"}, {"name": "PGPC02 - Commissariato Foligno", "address": "Via Garibaldi, 155 FOLIGNO", "coordinates": [12.7061009, 42.956959], "open": "08.00", "province": "PG"}, {"name": "PGPC03 - Commissariato Spoleto", "address": "Viale Guglielmo Marconi, 2 SPOLETO", "coordinates": [12.7365758, 42.7467405], "open": "08.00", "province": "PG"}, {"name": "CBPC01 - Commissariato Termoli", "address": "Via Cina, 7 TERMOLI", "coordinates": [14.9857643, 41.9954992], "open": "08.00", "province": "CB"}, {"name": "PTPC02 - Commissariato Pescia", "address": "Via Galeotti, 87 PESCIA", "coordinates": [10.6878969, 43.8954743], "open": "08.00", "province": "PT"}, {"name": "TRPQ60 - Questura di Terni", "address": "Via R.Antiochia, 12 TERNI", "coordinates": [12.655713741384572, 42.56246095], "open": "09.00", "province": "TR"}, {"name": "TRPC01 - Commissariato Orvieto", "address": "Piazza Cahen, 10 ORVIETO", "coordinates": [12.11968190831174, 42.721270950000005], "open": "08.00", "province": "TR"}, {"name": "FRPQ60 - Questura di Frosinone", "address": "Via Vado del Tufo, 67/B FROSINONE", "coordinates": [13.3357476, 41.6368816], "open": "08.00", "province": "FR"}, {"name": "FRPC01 - Commissariato Cassino", "address": "Via Ausonia Vecchia, 25/A CASSINO", "coordinates": [13.823300724375711, 41.47789295], "open": "08.00", "province": "FR"}, {"name": "POPQ60 - Questura di Prato", "address": "Via Migliore di Cino, 10/12 PRATO", "coordinates": [11.1062674, 43.8604414], "open": "08.30", "province": "PO"}, {"name": "RIPQ60 - Questura di Rieti", "address": "Largo Claudio Graziosi, 3 RIETI", "coordinates": [12.84883844789794, 42.40323775], "open": "08.00", "province": "RI"}, {"name": "VEPC08 - Commissariato Mestre", "address": "Via C\u00e0 Rossa 5 MESTRE", "coordinates": [12.249246, 45.4971645], "open": "09.00", "province": "VE"}, {"name": "VEPC05 - Commissariato Venezia Marghera", "address": "Via Cosenz, 11 VENEZIA", "coordinates": [12.2887766, 45.5229494], "open": "10.00", "province": "VE"}, {"name": "VEPC06 - Commissariato San Marco", "address": "Castello 5053, fondamenta san Lorenzo VENEZIA", "coordinates": [12.340591020258383, 45.4342109], "open": "10.00", "province": "VE"}, {"name": "PTPC01 - Commissariato Montecatini Terme", "address": "Viale Adua, 27 MONTECATINI TERME", "coordinates": [10.764617, 43.8881029], "open": "09.15", "province": "PT"}, {"name": "VAPF47 - Commissariato Luino", "address": "Piazza Marconi, 13 LUINO", "coordinates": [8.7368395, 45.9970233], "open": "07.00", "province": "VA"}, {"name": "SOPF42 - Settore di Polizia di frontiera Tirano", "address": "Via Elvezia, 20 TIRANO", "coordinates": [10.1541538, 46.2204793], "open": "08.00", "province": "SO"}, {"name": "SSPQ60 - Questura di Sassari", "address": "via Giovanni Palatucci, 1 SASSARI", "coordinates": [8.563794688421403, 40.7359437], "open": "12.30", "province": "SS"}, {"name": "SSPC02 - Commissariato Alghero", "address": "via Kennedy s.n.c. ALGHERO", "coordinates": [8.3151473, 40.5600205], "open": "08.00", "province": "SS"}, {"name": "SSPC03 - Commissariato Olbia", "address": "Via Dei Pini, 66 OLBIA", "coordinates": [9.4916164, 40.9450556], "open": "08.00", "province": "SS"}, {"name": "SSPC04 - Commissariato Ozieri", "address": "Via Vittorio Veneto, 52 OZIERI", "coordinates": [9.0016211, 40.5871704], "open": "08.00", "province": "SS"}, {"name": "SSPC05 - Commissariato Porto Cervo ", "address": "Lungomare Cannigione ARZACHENA", "coordinates": [9.4412107, 41.1102226], "open": "09.00", "province": "SS"}, {"name": "SSPC01 - Commissariato Tempio Pausania", "address": "Viale Bernardo Demuro, 5 TEMPIO PAUSANIA", "coordinates": [9.1014487, 40.8993552], "open": "11.30", "province": "SS"}, {"name": "NUPQ60 - Questura di Nuoro", "address": "Piazza Vittorio Emanuele, 18 NUORO", "coordinates": [9.3339935, 40.319851], "open": "08.00", "province": "NU"}, {"name": "NUPC01 - Commissariato Gavoi", "address": "Via Settembrini snc GAVOI", "coordinates": [9.1982505, 40.1648894], "open": "08.00", "province": "NU"}, {"name": "NUPC02 - Commissariato Lanusei", "address": "Viale della Repubblica, 67 LANUSEI", "coordinates": [9.5411469, 39.8792127], "open": "08.00", "province": "NU"}, {"name": "NUPC03 - Commissariato Macomer", "address": "Via Lussu, 1 MACOMER", "coordinates": [8.763722, 40.2693844], "open": "09.00", "province": "NU"}, {"name": "NUPC06 - Commissariato Orgosolo", "address": "Via Rinascita, 45 ORGOSOLO", "coordinates": [9.3545098, 40.2054855], "open": "08.00", "province": "NU"}, {"name": "NUPC04 - Commissariato Ottana", "address": "Via Aldo Moro, 7 OTTANA", "coordinates": [9.0473163, 40.2329669], "open": "08.00", "province": "NU"}, {"name": "NUPC05 - Commissariato Siniscola", "address": "via Francesco Straullu n. 1 SINISCOLA", "coordinates": [9.693975, 40.5731874], "open": "08.00", "province": "NU"}, {"name": "NUPC07 - Commissariato Tortol\u00ec", "address": "Via G. Deledda, 33 TORTOLI'", "coordinates": [9.6591551, 39.9266045], "open": "08.00", "province": "NU"}, {"name": "ORPQ60 - Questura di Oristano", "address": "Via Beatrice D`Arborea ORISTANO", "coordinates": [8.5898989, 39.8936786], "open": "09.00", "province": "OR"}, {"name": "CZPC02 - Comm.to Catanzaro Lido", "address": "Via Carlo Pisacane, snc CATANZARO", "coordinates": [16.6376132, 38.8305133], "open": "08.00", "province": "CZ"}, {"name": "BZPC90 - sportello passaporti presso polizia stadale di brunico", "address": "Rione Anich, 23 BRUNICO", "coordinates": [11.9360538, 46.8035523], "open": "08.00", "province": "BZ"}, {"name": "TNPQ64 - Ufficio Passaporti c/o il Centro Addestramento Alpino", "address": "Strada de Ischia 4 TRENTO", "coordinates": [11.6622296, 46.3808737], "open": "08.00", "province": "TN"}, {"name": "TNPQ63 - Ufficio Passaporti c/o il Comune di Pinzolo", "address": "Viale della Pace 8 TRENTO", "coordinates": [10.7659918, 46.1598967], "open": "08.00", "province": "TN"}, {"name": "TNPQ62 - Ufficio Passaporti c/o la Comunit\u00e0 di Primiero", "address": "Via Roma, 19 TONADICO", "coordinates": [11.8317397, 46.1778648], "open": "08.00", "province": "TN"}, {"name": "TNPQ61 - Ufficio Passaporti - Distaccamento Polizia Stradale di Male'", "address": "Via 4 Novembre, 30 MALE'", "coordinates": [10.9102792, 46.3503936], "open": "08.00", "province": "TN"}, {"name": "FRPC03 - Commissariato di P.S.  Sora - Settore Polizia Amministrativa", "address": "via Firenze, 15 SORA", "coordinates": [13.6169579, 41.719175], "open": "09.00", "province": "FR"}, {"name": "APPQ60 - QUESTURA DI ASCOLI PICENO", "address": "VIALE DELLA REPUBBLICA 8 ASCOLI PICENO", "coordinates": [13.698633, 42.9287689], "open": "09.00", "province": "AP"}, {"name": "REPQ61 - Ufficio Passaporti c/o il Comune di Castelnovo n&egrave; Monti", "address": "Piazza Gramsci civico 01 CASTELNOVO NE' MONTI", "coordinates": [10.4032946, 44.4355622], "open": "08.00", "province": "RE"}, {"name": "FMPQ60 - Questura di Fermo", "address": "Via Italia, 12 FERMO", "coordinates": [13.7593806, 43.2589243], "open": "08.00", "province": "FM"}, {"name": "FRPC02 - Commissariato Fiuggi", "address": "Via Prenestina n.56 FIUGGI", "coordinates": [13.212583, 41.7975352], "open": "09.00", "province": "FR"}, {"name": "BGPQ61 - Comunita' Montana n.13 Valle Brembana", "address": "Via Antonio Locatelli 111 ZOGNO", "coordinates": [9.6415274, 45.7904195], "open": "08.00", "province": "BG"}, {"name": "BGPQ62 - Comunita' Montana Valle Seriana", "address": "Via Dante Alighieri n\u00b01 CLUSONE", "coordinates": [9.9492972, 45.8880092], "open": "08.00", "province": "BG"}, {"name": "BGPQ63 - Comunita' Montana dei Laghi Bergamaschi", "address": "Via del Cantiere n\u00b04 LOVERE", "coordinates": [9.932481391926935, 45.673267100000004], "open": "08.00", "province": "BG"}, {"name": "MIPC08 - Commissariato di Monza e della Brianza", "address": "via Romagna, 40 MILANO", "coordinates": [9.2693006, 45.4885352], "open": "08.00", "province": "MB"}, {"name": "APPC01 - COMMISSARIATO P.S. DI SAN BENEDETTO DEL TRONTO", "address": "VIA FRANCESCO CRISPI N.51 SAN BENEDETTO DEL TRONTO", "coordinates": [13.8818991, 42.950464], "open": "08.00", "province": "AP"}, {"name": "RMPC50 - COMMISSARIATO ALBANO LAZIALE", "address": "BORGO GARIBALDI N.7 ALBANO LAZIALE", "coordinates": [12.6606274, 41.7269089], "open": "08.30", "province": "RM"}, {"name": "RMPC03 - COMMISSARIATO ANZIO-NETTUNO", "address": "VIA ANTIUM NR.3 ANZIO", "coordinates": [12.6294128, 41.4622616], "open": "07.00", "province": "RM"}, {"name": "RMPC46 - COMMISSARIATO BORGO", "address": "PIAZZA CAVOUR N.3 ROMA", "coordinates": [12.4699223, 41.9050369], "open": "09.00", "province": "RM"}, {"name": "RMPC21 - COMMISSARIATO CASILINO", "address": "Via delle Cincie, 28 ROMA", "coordinates": [12.6035007, 41.8729436], "open": "00.00", "province": "RM"}, {"name": "RMPC36 - COMMISSARIATO CELIO", "address": "VIA MARCO AURELIO N.35 ROMA", "coordinates": [12.4949366, 41.8882839], "open": "08.00", "province": "RM"}, {"name": "RMPC04 - COMMISSARIATO CIVITAVECCHIA", "address": "VIA DELLA VITTORIA, 15 CIVITAVECCHIA", "coordinates": [11.797746212141938, 42.08761265], "open": "08.00", "province": "RM"}, {"name": "RMPC49 - COMMISSARIATO COLLEFERRO", "address": "VIA CASILINA KM 50.200 COLLEFERRO", "coordinates": [12.9821832, 41.756434], "open": "09.00", "province": "RM"}, {"name": "RMPC25 - COMMISSARIATO ESPOSIZIONE", "address": "VIALE ASIA N.32 ROMA", "coordinates": [12.4684536, 41.8324623], "open": "08.00", "province": "RM"}, {"name": "RMPC34 - COMMISSARIATO ESQUILINO", "address": "VIA PETRARCA, 7 ROMA", "coordinates": [12.5051584, 41.8919939], "open": "08.00", "province": "RM"}, {"name": "RMPC55 - COMMISSARIATO FIDENE-SERPENTARA", "address": "VIA FRANCO ENRIQUEZ N.18 ROMA", "coordinates": [12.528565, 41.9649143], "open": "09.00", "province": "RM"}, {"name": "RMPC26 - COMMISSARIATO FIUMICINO", "address": "VIA PORTUENSE 2466 FIUMICINO", "coordinates": [12.3044958, 41.7991225], "open": "08.00", "province": "RM"}, {"name": "RMPC48 - COMMISSARIATO FLAMINIO NUOVO", "address": "PIAZZA MANFREDI AZZARITA, 1 ROMA", "coordinates": [12.446237284477238, 41.96092165], "open": "08.00", "province": "RM"}, {"name": "RMPC07 - COMMISSARIATO GENZANO", "address": "VIA CHATILLON, 2 GENZANO DI ROMA", "coordinates": [12.6852689, 41.7080356], "open": "09.00", "province": "RM"}, {"name": "RMPC09 - COMMISSARIATO MARINO", "address": "PIAZZA DON LUIGI STURZO, 23 MARINO", "coordinates": [12.6712421, 41.7738636], "open": "08.00", "province": "RM"}, {"name": "RMPC31 - COMMISSARIATO MONTE MARIO", "address": "VIA GUIDO ALESSI N.19 ROMA", "coordinates": [12.44666, 41.9226346], "open": "09.00", "province": "RM"}, {"name": "RMPC28 - COMMISSARIATO MONTEVERDE", "address": "VIA FELICE CAVALLOTTI N.72 ROMA", "coordinates": [12.7582756, 41.9593082], "open": "10.00", "province": "RM"}, {"name": "RMPC19 - COMMISSARIATO PORTA MAGGIORE", "address": "VIA G. DE AGOSTINI, 50 ROMA", "coordinates": [12.53050219401683, 41.8864154], "open": "23.00", "province": "RM"}, {"name": "RMPC22 - COMMISSARIATO PORTA SAN GIOVANNI", "address": "VIA CASALMONFERRATO N.25 ROMA", "coordinates": [12.518253, 41.8806815], "open": "08.00", "province": "RM"}, {"name": "RMPC29 - COMMISSARIATO PRATI", "address": "VIA RUFFINI, 1 ROMA", "coordinates": [12.4901318, 41.8592635], "open": "00.00", "province": "RM"}, {"name": "RMPC44 - COMMISSARIATO PRENESTINO", "address": "VIA R. LE PETIT N.99/C ROMA", "coordinates": [12.4829321, 41.8933203], "open": "08.00", "province": "RM"}, {"name": "RMPC47 - COMMISSARIATO PRIMAVALLE", "address": "VIA LUIGI MAGLIONE N.9/11 ROMA", "coordinates": [12.4152599, 41.9232701], "open": "09.00", "province": "RM"}, {"name": "RMPC54 - COMMISSARIATO ROMANINA", "address": "VIA ORAZIO RAIMONDO 36 ROMA", "coordinates": [12.5974271, 41.8481405], "open": "12.00", "province": "RM"}, {"name": "RMPC15 - COMMISSARIATO SALARIO PARIOLI", "address": "VIA GUIDO D' AREZZO N.22 ROMA", "coordinates": [12.1606119, 41.9580132], "open": "09.00", "province": "RM"}, {"name": "RMPC18 - COMMISSARIATO SAN BASILIO", "address": "VIA ARENA, 7 ROMA", "coordinates": [12.4576354, 41.7407648], "open": "08.00", "province": "RM"}, {"name": "RMPC11 - COMMISSARIATO TIVOLI-GUIDONIA", "address": "LARGO SALVO D'ACQUISTO, 20 TIVOLI", "coordinates": [12.798884, 41.960922], "open": "08.00", "province": "RM"}, {"name": "RMPC37 - COMMISSARIATO TRASTEVERE", "address": "VIA SAN FRANCESCO RIPA, 64 ROMA", "coordinates": [12.4725688, 41.8860163], "open": "08.00", "province": "RM"}, {"name": "RMPC14 - COMMISSARIATO TREVI CAMPOMARZIO", "address": "PIAZZA DEL COLLEGIO ROMANO N.3 ROMA", "coordinates": [12.480381637348916, 41.89788365], "open": "09.00", "province": "RM"}, {"name": "RMPC23 - COMMISSARIATO TUSCOLANO", "address": "VIA MARCO V. CORVO N.34/A ROMA", "coordinates": [12.550047103905689, 41.877089299999994], "open": "09.15", "province": "RM"}, {"name": "RMPC12 - COMMISSARIATO VELLETRI", "address": "VIA RUGGERO GIOVANNELLI N.4 VELLETRI", "coordinates": [12.7778195, 41.685813], "open": "09.00", "province": "RM"}, {"name": "BSPQ61 - SPORTELLO PASSAPORTI DARFO BOARIO", "address": "VIA GIULIO PASTORE, 2 DARFO BOARIO TERME", "coordinates": [10.17326, 45.8732519], "open": "08.00", "province": "BS"}, {"name": "FEPQ61 - Sportello Ufficio Passaporti c/o il Comune di CENTO", "address": "VIA JOLANDA 15 - 17 CENTO", "coordinates": [11.2903029, 44.7274395], "open": "09.30", "province": "FE"}, {"name": "FEPQ62 - Sportello Ufficio Passaporti c/o il Comune di COMACCHIO", "address": "PIAZZA FOLEGATTI 15 COMACCHIO", "coordinates": [12.1836346, 44.6946426], "open": "09.30", "province": "FE"}, {"name": "BAPC18 - COMMISSARIATO DI P.S. PUTIGNANO", "address": "VIA CASULLI NR.4 PUTIGNANO", "coordinates": [17.1271969, 40.8492887], "open": "09.00", "province": "BA"}, {"name": "CNPQ62 - ALBA SPORTELLO AVANZATO QUESTURA CUNEO", "address": "PIAZZA RISORGIMENTO N. 1/A (interno Municipio) ALBA", "coordinates": [-4.1140518, 56.7861112], "open": "00.15", "province": "CN"}, {"name": "CNPQA1 - CEVA SPORTELLO AVANZATO", "address": "VIA PIO BOCCA N. 1 CEVA", "coordinates": [8.031907, 44.3833142], "open": "06.15", "province": "CN"}, {"name": "NOPQ61 - SPORTELLO PASSAPORTI DI BORGOMANERO(NO)", "address": "VIA DON MINZONI N.34 BORGOMANERO", "coordinates": [8.4313923, 45.7237332], "open": "10.00", "province": "NO"}, {"name": "RMPC56 - COMMISSARIATO P.S. LADISPOLI(RM)", "address": "Via Vilnius 7 LADISPOLI", "coordinates": [12.0846201, 41.9668906], "open": "09.00", "province": "RM"}, {"name": "FIPQ61 - AREA1: COMUNE DI BORGO SAN LORENZO", "address": "Via DEGLI ARGINI c/o Uffici della Polizia Municipale BORGO SAN LORENZO", "coordinates": [11.3864681, 43.954248], "open": "09.00", "province": "FI"}, {"name": "FIPQ62 - AREA2: COMUNE DI PONTASSIEVE", "address": "VIA TANZINI, 30 PONTASSIEVE", "coordinates": [11.439953393243256, 43.7758352], "open": "09.00", "province": "FI"}, {"name": "FIPQ63 - AREA3: COMUNE DI FIGLINE E INCISA VALDARNO", "address": "Piazza IV NOVEMBRE, nr.3 FIGLINE E INCISA VALDARNO", "coordinates": [11.4732925, 43.6189183], "open": "08.00", "province": "FI"}, {"name": "FIPQ64 - AREA4: COMUNE DI BARBERINO TAVARNELLE", "address": "PIAZZA MATTEOTTI N. 39 BARBERINO TAVARNELLE", "coordinates": [11.172910156489674, 43.5610531], "open": "09.00", "province": "FI"}, {"name": "LUPQ61 - DISTACCAMENTO POLIZIA STRADALE BAGNI DI LUCCA", "address": "VIA DELLA CHIUSA 25 Fraz. Fornoli BAGNI DI LUCCA", "coordinates": [10.590633, 44.0099818], "open": "09.00", "province": "LU"}, {"name": "CEPC07 - Commissariato Casal di Principe", "address": "Corso Umberto I - 81033 CASAL DI PRINCIPE", "coordinates": [14.1299377, 41.0062518], "open": "00.00", "province": "CE"}, {"name": "PVPQ61 - Distaccamento San Matteo", "address": "Viale Colgi,19 - 27100 PAVIA", "coordinates": [9.145955912350038, 45.197595874551034], "open": "08.00", "province": "PV"}, {"name": "BGPQ64 - Questura di Bergamo (MINORE ANNI 12)", "address": "Via Noli,22 - 24100 BERGAMO", "coordinates": [9.6817673, 45.7017292], "open": "08.00", "province": "BG"}, {"name": "VCPQ61 - DISTACCAMENTO POLIZIA STRADALE VARALLO SESIA", "address": "VIA BRIGATE GARIBALDI N.118 VARALLO", "coordinates": [8.2641578, 45.8118621], "open": "08.00", "province": "VC"}, {"name": "BGPC02 - Commissariato Treviglio (MINORE ANNI 12)", "address": "P.zza del Popolo, 3 TREVIGLIO", "coordinates": [9.5890105, 45.5212019], "open": "08.00", "province": "BG"}]